[
  {
    "pincode": "389170",
    "officename": "Bajarwada B.O",
    "officeType": "B.O",
    "Deliverystatus": "Delivery",
    "divisionname": "Panchmahals",
    "regionname": "Vadodara",
    "circlename": "Gujarat",
    "Taluk": "Jhalod",
    "Districtname": "Dahod",
    "statename": "GUJARAT"
  },
  {
    "pincode": "389170",
    "officename": "Chitrodia B.O",
    "officeType": "B.O",
    "Deliverystatus": "Delivery",
    "divisionname": "Panchmahals",
    "regionname": "Vadodara",
    "circlename": "Gujarat",
    "Taluk": "Jhalod",
    "Districtname": "Dahod",
    "statename": "GUJARAT"
  },
  {
    "pincode": "389170",
    "officename": "Dhadhela B.O",
    "officeType": "B.O",
    "Deliverystatus": "Delivery",
    "divisionname": "Panchmahals",
    "regionname": "Vadodara",
    "circlename": "Gujarat",
    "Taluk": "Fatepura",
    "Districtname": "Dahod",
    "statename": "GUJARAT"
  },
  {
    "pincode": "389170",
    "officename": "Dhavadia B.O",
    "officeType": "B.O",
    "Deliverystatus": "Delivery",
    "divisionname": "Panchmahals",
    "regionname": "Vadodara",
    "circlename": "Gujarat",
    "Taluk": "Jhalod",
    "Districtname": "Dahod",
    "statename": "GUJARAT"
  },
  {
    "pincode": "389170",
    "officename": "Fulpura B.O",
    "officeType": "B.O",
    "Deliverystatus": "Delivery",
    "divisionname": "Panchmahals",
    "regionname": "Vadodara",
    "circlename": "Gujarat",
    "Taluk": "Jhalod",
    "Districtname": "Dahod",
    "statename": "GUJARAT"
  },
  {
    "pincode": "389170",
    "officename": "Gamdi B.O",
    "officeType": "B.O",
    "Deliverystatus": "Delivery",
    "divisionname": "Panchmahals",
    "regionname": "Vadodara",
    "circlename": "Gujarat",
    "Taluk": "Jhalod",
    "Districtname": "Dahod",
    "statename": "GUJARAT"
  },
  {
    "pincode": "389170",
    "officename": "Garadu B.O",
    "officeType": "B.O",
    "Deliverystatus": "Delivery",
    "divisionname": "Panchmahals",
    "regionname": "Vadodara",
    "circlename": "Gujarat",
    "Taluk": "Jhalod",
    "Districtname": "Dahod",
    "statename": "GUJARAT"
  },
  {
    "pincode": "389170",
    "officename": "Hirola B.O",
    "officeType": "B.O",
    "Deliverystatus": "Non-Delivery",
    "divisionname": "Panchmahals",
    "regionname": "Vadodara",
    "circlename": "Gujarat",
    "Taluk": "Jhalod",
    "Districtname": "Dahod",
    "statename": "GUJARAT"
  },
  {
    "pincode": "389170",
    "officename": "Jafarpura B.O",
    "officeType": "B.O",
    "Deliverystatus": "Non-Delivery",
    "divisionname": "Panchmahals",
    "regionname": "Vadodara",
    "circlename": "Gujarat",
    "Taluk": "Jhalod",
    "Districtname": "Dahod",
    "statename": "GUJARAT"
  },
  {
    "pincode": "389170",
    "officename": "Jetpur B.O",
    "officeType": "B.O",
    "Deliverystatus": "Non-Delivery",
    "divisionname": "Panchmahals",
    "regionname": "Vadodara",
    "circlename": "Gujarat",
    "Taluk": "Jhalod",
    "Districtname": "Dahod",
    "statename": "GUJARAT"
  },
  {
    "pincode": "389170",
    "officename": "Jhalod S.O",
    "officeType": "S.O",
    "Deliverystatus": "Delivery",
    "divisionname": "Panchmahals",
    "regionname": "Vadodara",
    "circlename": "Gujarat",
    "Taluk": "Jhalod",
    "Districtname": "Dahod",
    "statename": "GUJARAT"
  },
  {
    "pincode": "389170",
    "officename": "Kadval B.O",
    "officeType": "B.O",
    "Deliverystatus": "Delivery",
    "divisionname": "Panchmahals",
    "regionname": "Vadodara",
    "circlename": "Gujarat",
    "Taluk": "Jhalod",
    "Districtname": "Dahod",
    "statename": "GUJARAT"
  },
  {
    "pincode": "389170",
    "officename": "Kalijini Saraswani B.O",
    "officeType": "B.O",
    "Deliverystatus": "Delivery",
    "divisionname": "Panchmahals",
    "regionname": "Vadodara",
    "circlename": "Gujarat",
    "Taluk": "Jhalod",
    "Districtname": "Dahod",
    "statename": "GUJARAT"
  },
  {
    "pincode": "389170",
    "officename": "Kharsana B.O",
    "officeType": "B.O",
    "Deliverystatus": "Delivery",
    "divisionname": "Panchmahals",
    "regionname": "Vadodara",
    "circlename": "Gujarat",
    "Taluk": "Jhalod",
    "Districtname": "Dahod",
    "statename": "GUJARAT"
  },
  {
    "pincode": "389170",
    "officename": "Mahudi B.O",
    "officeType": "B.O",
    "Deliverystatus": "Delivery",
    "divisionname": "Panchmahals",
    "regionname": "Vadodara",
    "circlename": "Gujarat",
    "Taluk": "Jhalod",
    "Districtname": "Dahod",
    "statename": "GUJARAT"
  },
  {
    "pincode": "389170",
    "officename": "Munkhosla B.O",
    "officeType": "B.O",
    "Deliverystatus": "Delivery",
    "divisionname": "Panchmahals",
    "regionname": "Vadodara",
    "circlename": "Gujarat",
    "Taluk": "Jhalod",
    "Districtname": "Dahod",
    "statename": "GUJARAT"
  },
  {
    "pincode": "389170",
    "officename": "Shankarpura B.O",
    "officeType": "B.O",
    "Deliverystatus": "Delivery",
    "divisionname": "Panchmahals",
    "regionname": "Vadodara",
    "circlename": "Gujarat",
    "Taluk": "Jhalod",
    "Districtname": "Dahod",
    "statename": "GUJARAT"
  },
  {
    "pincode": "389170",
    "officename": "Therka B.O",
    "officeType": "B.O",
    "Deliverystatus": "Delivery",
    "divisionname": "Panchmahals",
    "regionname": "Vadodara",
    "circlename": "Gujarat",
    "Taluk": "Jhalod",
    "Districtname": "Dahod",
    "statename": "GUJARAT"
  },
  {
    "pincode": "389170",
    "officename": "Vagela B.O",
    "officeType": "B.O",
    "Deliverystatus": "Non-Delivery",
    "divisionname": "Panchmahals",
    "regionname": "Vadodara",
    "circlename": "Gujarat",
    "Taluk": "Jhalod",
    "Districtname": "Dahod",
    "statename": "GUJARAT"
  },
  {
    "pincode": "389170",
    "officename": "Velpura B.O",
    "officeType": "B.O",
    "Deliverystatus": "Delivery",
    "divisionname": "Panchmahals",
    "regionname": "Vadodara",
    "circlename": "Gujarat",
    "Taluk": "Jhalod",
    "Districtname": "Dahod",
    "statename": "GUJARAT"
  }
]
